City,Country,DateTime,Humidity,Temperature,Max. Temp.,Latitude,WindSpeed,Cloudiness,Longitude
hilo,US,1604798838,88,22.63,24.0,19.73,2.1,90,-155.09
nayoro,JP,1604799081,63,6.47,6.47,44.35,5.46,59,142.46
kodiak,US,1604798950,93,7.0,7.0,57.79,8.2,90,-152.41
pueblo,US,1604799081,32,18.03,19.0,38.25,9.8,1,-104.61
salalah,OM,1604799081,53,23.0,23.0,17.02,1.5,0,54.09
georgetown,MY,1604798894,83,26.61,28.0,5.41,2.1,20,100.34
ushuaia,AR,1604799082,44,14.0,14.0,-54.8,6.7,20,-68.3
carnarvon,AU,1604798945,64,24.0,24.0,-24.87,7.7,40,113.63
sundumbili,ZA,1604799082,93,19.0,19.0,-29.13,1.0,0,31.4
soyo,AO,1604799082,85,25.2,25.2,-6.13,1.43,98,12.37
sorong,ID,1604799083,72,29.61,29.61,-0.88,4.11,100,131.25
mataura,NZ,1604799083,52,12.22,12.22,-46.19,4.92,0,168.86
nikolskoye,RU,1604799083,81,8.04,9.0,59.7,5.0,75,30.79
esperance,AU,1604799083,64,21.0,21.0,-33.87,1.5,1,121.9
chokurdakh,RU,1604799083,95,-16.52,-16.52,70.63,1.74,100,147.92
krasnogvardeyets,RU,1604799084,85,1.95,1.95,52.68,5.39,98,52.36
axim,GH,1604799084,88,25.73,25.73,4.87,3.49,100,-2.24
lompoc,US,1604798950,71,11.83,13.0,34.64,3.6,75,-120.46
saint george,US,1604798879,46,9.79,10.56,37.1,6.2,40,-113.58
paamiut,GL,1604799084,88,-2.74,-2.74,61.99,13.07,76,-49.67
rikitea,PF,1604799085,74,22.08,22.08,-23.12,8.07,100,-134.97
solnechnyy,RU,1604799085,85,-5.05,-5.05,50.72,3.0,83,136.63
pevek,RU,1604799085,96,-9.92,-9.92,69.7,1.16,98,170.31
san patricio,US,1604799085,94,22.15,22.22,28.02,6.2,20,-97.52
atuona,PF,1604799085,79,25.33,25.33,-9.8,6.32,20,-139.03
vardo,NO,1604799086,76,4.31,4.31,70.37,15.04,55,31.11
ojinaga,MX,1604799086,25,25.0,25.0,29.57,4.6,1,-104.42
berlevag,NO,1604799086,74,4.08,4.08,70.86,14.87,96,29.09
ancud,CL,1604799087,66,10.38,12.78,-41.87,5.7,10,-73.82
norman wells,CA,1604799087,92,-2.0,-2.0,65.28,1.5,75,-126.83
palmer,US,1604799087,71,10.81,12.78,42.16,1.1,40,-72.33
jamestown,US,1604799087,44,16.0,16.0,42.1,2.15,1,-79.24
saint-pierre,RE,1604799088,68,18.59,21.0,-21.34,3.6,40,55.48
punta arenas,CL,1604798968,71,10.78,11.0,-53.15,13.9,40,-70.92
nanortalik,GL,1604799088,97,-1.38,-1.38,60.14,5.44,100,-45.24
nanao,JP,1604799088,63,16.81,17.78,37.05,4.6,40,136.97
bluff,NZ,1604799088,52,12.22,12.22,-46.6,4.92,32,168.33
upernavik,GL,1604799089,78,-17.1,-17.1,72.79,3.54,55,-56.15
atbasar,KZ,1604799089,87,6.55,6.55,51.8,7.93,100,68.33
saskylakh,RU,1604799089,89,-22.89,-22.89,71.92,3.69,6,114.08
husavik,IS,1604798992,48,6.0,6.0,66.04,7.2,90,-17.34
albany,US,1604799030,58,11.97,13.33,42.6,1.63,14,-73.97
tasiilaq,GL,1604799090,68,-1.0,-1.0,65.61,1.5,93,-37.64
port alfred,ZA,1604799090,78,18.35,18.35,-33.59,4.19,0,26.89
cape town,ZA,1604799090,87,14.46,16.11,-33.93,4.1,75,18.42
plettenberg bay,ZA,1604799090,77,15.29,15.29,-34.05,1.17,0,23.37
komsomolskiy,UZ,1604799090,30,6.0,6.0,40.43,1.0,2,71.72
airai,TL,1604799091,35,27.13,27.13,-8.93,2.35,53,125.41
avera,US,1604799091,78,20.85,22.0,33.19,2.6,75,-82.53
aguie,NE,1604799091,22,22.16,22.16,13.51,4.7,0,7.78
novobessergenevka,RU,1604799092,76,8.42,8.42,47.18,2.97,0,38.85
tuatapere,NZ,1604799092,52,12.22,12.22,-46.13,4.92,10,167.68
umm lajj,SA,1604799092,63,22.0,22.0,25.02,3.31,78,37.27
garissa,KE,1604799092,78,25.05,25.05,-0.45,5.05,41,39.64
cabo san lucas,MX,1604799093,74,26.03,26.11,22.89,2.6,5,-109.91
hasaki,JP,1604799093,82,19.26,20.0,35.73,3.6,75,140.83
east london,ZA,1604799093,81,20.79,20.79,-33.02,6.72,0,27.91
tongren,CN,1604799093,53,19.57,19.57,27.72,1.78,0,109.19
hobart,AU,1604799093,47,17.34,18.89,-42.88,5.1,20,147.33
exu,BR,1604799093,45,29.0,29.0,-7.51,1.5,40,-39.72
ende,ID,1604799094,44,32.15,32.15,-8.84,1.73,9,121.66
pisco,PE,1604799094,88,17.1,17.22,-13.7,5.7,75,-76.22
avarua,CK,1604799094,73,25.0,25.0,-21.21,3.1,67,-159.78
kapaa,US,1604799094,74,26.39,29.0,22.08,6.7,90,-159.32
vaini,TO,1604799094,74,27.0,27.0,-21.2,4.1,20,-175.2
pangnirtung,CA,1604799095,84,-15.4,-15.4,66.15,1.5,90,-65.71
kaitangata,NZ,1604798914,45,12.22,12.22,-46.28,3.58,0,169.85
aksarka,RU,1604799095,99,-2.4,-2.4,66.56,2.12,100,67.8
barrow,US,1604799095,86,-1.0,-1.0,71.29,10.3,90,-156.79
puerto ayora,EC,1604799095,80,20.56,20.56,-0.74,2.68,12,-90.35
yellowknife,CA,1604799095,84,-14.59,-13.89,62.46,1.5,75,-114.35
arrecife,ES,1604799050,72,18.0,18.0,28.96,1.5,20,-13.55
zhicheng,CN,1604799096,48,20.56,20.56,30.3,2.08,0,111.5
nanchong,CN,1604799096,60,18.98,18.98,30.8,1.12,0,106.08
kamenka,RU,1604799096,94,2.22,2.22,51.32,4.34,0,42.77
arraial do cabo,BR,1604799097,79,22.41,22.41,-22.97,4.1,99,-42.03
jaguarari,BR,1604799097,90,21.3,21.3,-10.26,5.19,28,-40.2
rocha,UY,1604799097,95,13.28,13.28,-34.48,1.69,0,-54.33
butaritari,KI,1604799097,70,27.37,27.37,3.07,4.14,51,172.79
vao,NC,1604799097,72,23.16,23.16,-22.67,6.02,20,167.48
pakxe,LA,1604799098,78,24.0,24.0,15.12,1.0,40,105.78
vuktyl,RU,1604799098,99,-0.43,-0.43,63.86,3.42,100,57.31
puerto del rosario,ES,1604799098,77,18.0,18.0,28.5,3.1,0,-13.86
iqaluit,CA,1604799098,71,-13.0,-13.0,63.75,1.0,75,-68.51
tuktoyaktuk,CA,1604799098,85,-4.0,-4.0,69.45,8.2,40,-133.04
tarpon springs,US,1604799099,69,25.0,25.56,28.15,6.2,100,-82.76
camacha,PT,1604799099,77,19.0,19.0,33.08,4.1,20,-16.33
lavrentiya,RU,1604799099,95,-1.91,-1.91,65.58,2.24,15,-171.0
biltine,TD,1604799099,30,21.91,21.91,14.53,3.45,0,20.92
hermanus,ZA,1604799099,85,13.89,13.89,-34.42,0.89,89,19.23
bredasdorp,ZA,1604799100,87,14.0,14.0,-34.53,5.7,18,20.04
zastron,ZA,1604799100,44,14.61,14.61,-30.3,2.38,0,27.08
qaanaaq,GL,1604799100,69,-24.51,-24.51,77.48,4.64,0,-69.36
malumfashi,NG,1604799100,25,19.84,19.84,11.79,4.04,35,7.62
ribeira grande,PT,1604799100,71,16.28,16.28,38.52,6.37,9,-28.7
taseyevo,RU,1604799101,87,3.15,3.15,57.22,1.89,91,94.9
kenai,US,1604799101,86,-3.23,-2.78,60.55,7.7,90,-151.26
mahebourg,MU,1604799101,94,22.0,22.0,-20.41,3.6,75,57.7
cherskiy,RU,1604799101,94,-15.1,-15.1,68.75,3.05,99,161.3
busselton,AU,1604799037,77,20.0,20.0,-33.65,3.84,98,115.33
grants,US,1604799102,81,10.0,10.0,35.15,6.2,90,-107.85
katsuura,JP,1604799102,56,20.38,22.22,35.13,0.89,100,140.3
tiksi,RU,1604799102,92,-21.24,-21.24,71.69,0.99,71,128.87
champerico,GT,1604799102,94,22.16,25.0,14.3,2.1,75,-91.92
kavieng,PG,1604799103,64,29.67,29.67,-2.57,2.02,29,150.8
matara,LK,1604799103,82,26.49,26.49,5.95,1.71,25,80.54
beira,MZ,1604799103,88,23.94,24.0,-19.84,1.5,0,34.84
brae,GB,1604799103,100,4.0,4.0,60.4,1.0,34,-1.35
khandyga,RU,1604799103,87,-21.31,-21.31,62.67,0.34,95,135.6
maamba,ZM,1604799104,28,26.85,26.85,-17.37,0.82,0,27.15
praia da vitoria,PT,1604799104,87,13.71,14.0,38.73,5.19,75,-27.07
margate,GB,1604799104,66,11.38,12.78,51.38,0.89,48,1.39
high level,CA,1604799104,85,-10.0,-10.0,58.52,1.88,90,-117.14
isangel,VU,1604799104,79,29.0,29.0,-19.55,3.97,75,169.27
creetown,GB,1604799104,81,7.0,7.0,54.9,2.6,20,-4.38
qarqin,AF,1604799105,19,18.95,18.95,37.42,7.93,99,66.04
rochegda,RU,1604799105,80,2.91,2.91,62.8,7.41,93,43.25
pucallpa,PE,1604799105,62,29.0,29.0,-8.38,4.1,40,-74.55
te anau,NZ,1604799105,40,12.78,12.78,-45.42,3.45,1,167.72
muzhi,RU,1604799105,99,-2.96,-2.96,65.37,0.8,100,64.67
marovoay,MG,1604799106,83,24.0,24.0,-16.1,1.5,20,46.63
hithadhoo,MV,1604798842,71,28.76,28.76,-0.6,3.52,11,73.08
torbay,CA,1604799106,80,2.56,3.33,47.67,6.7,75,-52.73
bonavista,CA,1604799106,80,0.96,2.22,48.65,2.1,100,-53.11
cayenne,GF,1604799106,94,26.0,26.0,4.93,1.0,0,-52.33
kruisfontein,ZA,1604799107,91,13.33,13.33,-34.0,0.78,0,24.73
bandarbeyla,SO,1604799107,86,23.27,23.27,9.49,5.05,43,50.81
hirado,JP,1604799107,63,19.27,21.11,33.36,3.6,0,129.55
victoria,HK,1604798974,56,23.81,25.56,22.29,0.89,98,114.16
visnes,NO,1604799108,93,7.15,8.33,59.36,3.1,92,5.22
scottsbluff,US,1604799108,58,12.0,12.0,41.87,3.11,1,-103.67
kamaishi,JP,1604799108,87,12.0,12.0,39.27,3.1,75,141.88
teya,RU,1604799108,85,2.79,2.79,60.38,6.0,100,92.63
faanui,PF,1604799109,75,26.36,26.36,-16.48,4.89,100,-151.75
pecos,US,1604799109,31,23.0,23.0,31.42,7.7,1,-103.49
luderitz,NA,1604799109,87,15.96,15.96,-26.65,1.79,0,15.16
matagami,CA,1604799109,94,0.0,0.0,49.75,2.1,90,-77.63
ishigaki,JP,1604799110,88,27.0,27.0,24.34,5.7,20,124.16
hualmay,PE,1604799110,86,15.92,15.92,-11.1,2.56,13,-77.61
mount isa,AU,1604799110,7,34.0,34.0,-20.73,4.6,20,139.5
castro,BR,1604799110,63,15.18,15.18,-24.79,2.54,0,-50.01
uni,RU,1604799110,94,0.66,0.66,57.75,6.32,100,51.49
lincoln,US,1604799111,59,19.17,20.0,40.8,8.7,1,-96.67
morgan city,US,1604799111,88,20.85,21.0,29.7,3.6,1,-91.21
provideniya,RU,1604799111,93,-2.35,-2.35,64.38,1.94,0,-173.3
sitka,US,1604799111,74,3.0,3.0,57.05,1.5,1,-135.33
mengcheng,CN,1604799111,30,16.73,16.73,33.26,3.73,0,116.57
nhulunbuy,AU,1604799112,62,31.0,31.0,-12.23,6.2,75,136.77
pimentel,PE,1604799112,77,18.0,18.0,-6.84,6.2,0,-79.93
manokwari,ID,1604799112,70,29.27,29.27,-0.87,2.43,100,134.08
caravelas,BR,1604799112,95,23.55,23.55,-17.71,1.93,100,-39.25
rincon,US,1604799112,83,20.34,22.0,32.3,5.1,1,-81.24
quixeramobim,BR,1604799113,68,25.74,25.74,-5.2,4.04,0,-39.29
dikson,RU,1604799113,90,-19.08,-19.08,73.51,6.11,100,80.55
smiltene,LV,1604799113,98,8.33,8.33,57.42,1.79,100,25.9
kidero,RU,1604799113,93,-2.67,-2.67,42.19,2.96,65,45.96
kloulklubed,PW,1604799114,83,28.0,28.0,7.04,3.6,90,134.26
vila franca do campo,PT,1604799114,76,14.0,14.0,37.72,3.6,75,-25.43
los llanos de aridane,ES,1604799114,59,16.21,19.0,28.66,4.6,0,-17.92
caucaia,BR,1604799114,78,27.0,27.0,-3.74,4.1,20,-38.65
turukhansk,RU,1604799114,99,-1.15,-1.15,65.82,7.1,100,87.98
casablanca,MA,1604798841,100,15.09,17.78,33.59,1.0,0,-7.62
longyearbyen,SJ,1604799115,86,-2.0,-2.0,78.22,3.6,75,15.64
sangueya,GN,1604799115,90,25.07,25.07,10.7,0.73,0,-14.37
tateyama,JP,1604799115,68,20.98,22.22,34.98,2.1,75,139.87
tromso,NO,1604799115,86,0.46,1.0,69.65,18.5,90,18.96
fortuna,US,1604799116,76,9.89,10.56,40.6,5.7,20,-124.16
payette,US,1604799116,70,4.66,6.0,44.08,8.7,90,-116.93
mar del plata,AR,1604799116,93,16.37,16.67,-38.0,2.1,40,-57.56
parana,AR,1604799116,51,25.19,25.56,-31.73,1.79,0,-60.52
umba,RU,1604799117,82,1.97,1.97,66.69,8.87,27,34.34
san quintin,MX,1604799117,63,16.42,16.42,30.48,7.45,0,-115.95
flinders,AU,1604799117,55,17.39,18.89,-34.58,5.1,90,150.86
cockburn town,TC,1604799117,80,26.44,26.44,21.46,9.57,100,-71.14
lebu,CL,1604799117,82,11.64,11.64,-37.62,9.54,0,-73.65
sayyan,YE,1604799118,48,9.71,9.71,15.17,1.11,47,44.32
mezen,RU,1604799118,96,0.94,0.94,65.85,5.27,100,44.24
luyang,CN,1604799118,59,17.73,17.73,27.62,1.68,0,110.1
nuuk,GL,1604799118,79,-6.0,-6.0,64.18,5.1,100,-51.72
chingirlau,KZ,1604799118,94,0.56,0.56,51.09,5.54,29,54.08
huarmey,PE,1604799119,86,16.29,16.29,-10.07,2.14,15,-78.15
pemba,MZ,1604799119,83,25.0,25.0,-12.97,5.1,40,40.52
sur,OM,1604799119,68,24.1,24.1,22.57,2.29,0,59.53
prainha,BR,1604799119,75,26.36,26.36,-1.8,1.99,64,-53.48
new norfolk,AU,1604799119,47,17.23,18.89,-42.78,5.1,20,147.06
port elizabeth,ZA,1604799120,93,15.0,15.0,-33.92,3.1,0,25.57
sao jose da coroa grande,BR,1604799120,83,25.03,25.03,-8.9,5.1,21,-35.15
belyy yar,RU,1604799120,92,-4.0,-4.0,53.6,1.0,39,91.39
lao cai,VN,1604799120,59,24.87,24.87,22.48,0.71,36,103.95
guerrero negro,MX,1604799120,68,17.67,17.67,27.98,7.67,0,-114.06
bambous virieux,MU,1604799120,94,21.84,22.0,-20.34,3.6,75,57.76
artyom,AZ,1604799121,87,11.0,11.0,40.47,7.2,90,50.33
lagoa,PT,1604799121,74,16.19,16.19,39.05,7.1,39,-27.98
marfino,RU,1604799121,93,11.5,21.85,55.7,7.0,75,37.38
riyadh,SA,1604798514,39,18.0,18.0,24.69,1.5,0,46.72
bengkulu,ID,1604798885,74,27.17,27.17,-3.8,0.84,99,102.27
hit,IQ,1604799122,54,17.84,17.84,33.64,3.02,70,42.83
clyde river,CA,1604799122,59,-17.0,-17.0,70.47,2.6,1,-68.59
kalmunai,LK,1604799122,78,27.1,27.1,7.42,2.53,53,81.82
angoram,PG,1604799122,52,32.76,32.76,-4.06,1.68,100,144.07
tretten,NO,1604799122,89,3.33,3.33,61.31,0.21,75,10.3
aksu,CN,1604799123,65,2.94,2.94,41.12,0.59,0,80.26
campoverde,PE,1604799123,62,29.0,29.0,-8.48,4.1,40,-74.81
port hedland,AU,1604799123,21,35.0,35.0,-20.32,2.6,0,118.57
zhoucheng,CN,1604799123,33,13.41,13.41,35.91,2.96,0,116.31
port hardy,CA,1604799005,60,6.77,8.0,50.7,5.1,20,-127.42
gat,IL,1604798881,78,16.86,18.33,31.61,0.85,31,34.76
balykshi,KZ,1604799124,93,4.0,4.0,47.07,6.0,75,51.87
aksehir,TR,1604799124,68,5.53,5.53,38.36,2.26,0,31.42
ayorou,NE,1604799124,17,25.51,25.51,14.73,4.69,0,0.92
namibe,AO,1604799124,70,20.43,20.43,-15.2,3.36,100,12.15
wilmington,US,1604799124,82,20.11,21.11,34.23,4.1,1,-77.94
penzance,GB,1604799125,100,13.0,13.0,50.12,4.6,90,-5.54
viana,BR,1604799125,88,23.94,24.0,-20.39,1.5,90,-40.5
aklavik,CA,1604799125,68,-3.0,-3.0,68.22,2.1,40,-135.01
anadyr,RU,1604799125,85,-6.06,-6.0,64.75,2.0,75,177.48
korla,CN,1604799126,62,3.25,3.25,41.76,1.32,0,86.15
luanda,AO,1604799126,83,26.0,26.0,-8.84,1.5,75,13.23
richards bay,ZA,1604799126,87,23.0,23.0,-28.78,2.88,0,32.04
port blair,IN,1604799126,75,28.63,28.63,11.67,4.74,1,92.75
saint anthony,US,1604799127,59,18.87,19.44,45.02,8.7,1,-93.22
sao filipe,CV,1604799127,77,26.19,26.19,14.9,3.96,87,-24.5
mujiayingzi,CN,1604799127,60,0.99,0.99,42.12,6.06,0,118.78
sedan,FR,1604799127,82,10.56,10.56,49.67,3.58,89,5.0
ponta do sol,PT,1604799127,77,15.96,17.0,32.67,2.1,20,-17.1
maracacume,BR,1604799128,95,23.42,23.42,-2.04,1.24,0,-45.96
nelson bay,AU,1604799128,49,20.32,20.56,-32.72,5.1,23,152.15
ostrovnoy,RU,1604799128,85,2.57,2.57,68.05,9.43,46,39.51
hami,CN,1604799128,48,6.7,6.7,42.8,3.29,49,93.45
paracatu,BR,1604799129,69,23.05,23.05,-17.22,0.96,95,-46.87
port shepstone,ZA,1604799129,81,20.75,20.75,-30.74,1.3,22,30.45
hobyo,SO,1604799129,80,26.1,26.1,5.35,4.58,28,48.53
hatillo,PR,1604799129,100,23.43,23.89,18.49,2.1,75,-66.83
auki,SB,1604799130,62,31.08,31.08,-8.77,1.84,15,160.7
matay,EG,1604799130,66,14.62,14.62,28.42,1.74,0,30.78
aras,ES,1604799130,93,12.11,12.22,42.56,0.5,90,-2.36
coihaique,CL,1604798982,58,12.0,12.0,-45.58,1.5,0,-72.07
yumen,CN,1604799130,38,7.67,7.67,40.28,1.7,0,97.2
bubaque,GW,1604799131,78,29.41,29.41,11.28,4.93,0,-15.83
nome,US,1604799131,95,1.8,2.0,64.5,2.6,75,-165.41
campina verde,BR,1604799131,42,26.64,26.64,-19.54,2.14,49,-49.49
villa carlos paz,AR,1604799132,49,23.01,25.0,-31.42,0.89,1,-64.5
krasnorechenskiy,RU,1604799132,74,2.31,2.31,44.63,0.34,100,135.35
traralgon,AU,1604799132,57,17.78,17.78,-38.18,1.34,0,146.53
dunedin,NZ,1604799132,48,12.22,12.22,-45.87,8.05,3,170.5
kaeo,NZ,1604799132,63,23.89,23.89,-35.1,6.26,0,173.78
beringovskiy,RU,1604799133,95,-2.24,-2.24,63.05,5.62,100,179.32
bojnurd,IR,1604799133,76,12.0,12.0,37.47,2.1,75,57.33
sambava,MG,1604799133,87,24.01,24.01,-14.27,2.86,100,50.17
kortkeros,RU,1604799133,98,0.0,0.0,61.81,4.0,90,51.58
linkou,CN,1604799134,85,-0.03,-0.03,45.3,8.16,95,130.28
severo-yeniseyskiy,RU,1604799134,93,0.89,0.89,60.37,6.06,100,93.04
asau,RO,1604799134,89,5.56,5.56,46.43,1.9,0,26.4
zhigansk,RU,1604799134,88,-25.93,-25.93,66.77,2.09,57,123.37
vestmannaeyjar,IS,1604799135,65,6.71,6.71,63.44,7.62,100,-20.27
itapirapua,BR,1604799135,67,25.02,25.02,-15.82,1.38,100,-50.61
grindavik,IS,1604799135,80,4.0,4.0,63.84,6.7,40,-22.43
el tocuyo,VE,1604799135,66,30.0,30.0,9.79,1.0,100,-69.79
fomboni,KM,1604799135,74,27.24,27.24,-12.28,5.12,100,43.74
zhanaozen,KZ,1604799136,74,7.44,7.44,43.3,4.83,85,52.8
punta alta,AR,1604799136,59,15.45,15.45,-38.88,7.04,0,-62.07
garoua boulai,CM,1604799136,64,17.85,17.85,5.88,1.15,99,14.55
pishin,PK,1604799136,63,4.95,4.95,30.58,1.15,0,67.0
yar-sale,RU,1604799137,99,-3.71,-3.71,66.83,0.69,93,70.83
bathsheba,BB,1604799137,83,27.0,27.0,13.22,9.3,40,-59.52
gouyave,GD,1604799137,88,27.0,27.0,12.16,6.2,20,-61.73
quelimane,MZ,1604799137,76,23.91,23.91,-17.88,2.97,0,36.89
fairbanks,US,1604798856,85,-5.51,-4.44,64.84,1.5,90,-147.72
saint-philippe,RE,1604799137,68,19.52,22.0,-21.36,3.6,40,55.77
kota kinabalu,MY,1604799138,79,28.95,29.0,5.97,3.1,20,116.07
shache,CN,1604799138,69,0.8,0.8,38.42,1.14,0,77.24
maragogi,BR,1604798957,83,24.97,24.97,-9.01,5.38,9,-35.22
obo,CF,1604799138,91,21.14,21.14,5.4,0.41,100,26.49
alyangula,AU,1604799138,63,33.0,33.0,-13.85,4.6,75,136.42
itaituba,BR,1604799139,94,24.41,24.41,-4.28,1.12,98,-55.98
necochea,AR,1604799139,89,12.78,12.78,-38.55,2.24,0,-58.74
darhan,MN,1604799139,85,-2.54,-2.54,49.49,2.26,0,105.92
westport,US,1604799139,72,14.78,16.11,41.14,3.1,1,-73.36
yatou,CN,1604799139,47,9.89,9.89,37.15,7.26,0,122.38
olafsvik,IS,1604799140,72,4.36,4.36,64.89,10.84,30,-23.71
praia,CV,1604799140,83,25.0,25.0,14.92,7.2,0,-23.51
severo-kurilsk,RU,1604799140,76,2.69,2.69,50.68,2.48,15,156.12
great yarmouth,GB,1604799140,99,8.9,11.11,52.61,4.33,11,1.73
piraju,BR,1604799141,60,18.64,18.64,-23.19,3.5,0,-49.38
fairlie,GB,1604799141,92,5.4,5.56,55.76,2.24,100,-4.86
deputatskiy,RU,1604799141,93,-19.63,-19.63,69.3,1.56,99,139.9
acajutla,SV,1604799141,100,21.11,21.11,13.59,0.8,100,-89.83
chiradzulu,MW,1604799142,44,21.35,21.35,-15.67,2.37,0,35.14
atar,MR,1604799142,20,28.16,28.16,20.52,4.24,49,-13.05
saldanha,ZA,1604799142,87,16.0,16.0,-33.01,4.1,48,17.94
nara,JP,1604799142,72,20.05,21.11,34.69,2.1,20,135.8
mogadishu,SO,1604799142,84,25.34,25.34,2.04,2.28,100,45.34
garowe,SO,1604799143,78,21.7,21.7,8.41,4.2,3,48.48
mayo,US,1604799143,93,13.42,14.44,38.89,1.58,1,-76.51
akyab,MM,1604799143,80,25.82,25.82,20.15,2.65,0,92.9
sorland,NO,1604799143,68,5.06,5.06,67.67,7.3,98,12.69
khatanga,RU,1604799143,87,-19.95,-19.95,71.97,5.7,0,102.5
havre-saint-pierre,CA,1604799144,73,-4.0,-4.0,50.23,2.6,1,-63.6
myaundzha,RU,1604799144,84,-20.69,-20.69,63.05,1.63,91,147.19
voh,NC,1604799144,59,27.44,27.44,-20.97,5.52,33,164.7
nyrob,RU,1604799144,98,-0.86,-0.86,60.73,3.59,97,56.72
port-gentil,GA,1604799144,86,26.01,26.01,-0.72,5.23,100,8.78
yichun,CN,1604799145,91,-2.71,-2.71,47.7,3.55,100,128.9
adrar,MR,1604799145,20,27.27,27.27,20.5,3.85,0,-10.07
codajas,BR,1604799145,92,24.09,24.09,-3.84,0.37,99,-62.06
hamza,UZ,1604799145,30,6.0,6.0,40.43,1.0,0,71.5
chimbote,PE,1604799145,83,16.6,16.6,-9.09,3.04,64,-78.58
padang,ID,1604799146,81,25.84,25.84,-0.95,2.33,100,100.35
moree,AU,1604799146,36,26.0,26.0,-29.47,5.1,75,149.85
redwater,US,1604799146,82,19.35,20.0,33.36,2.82,40,-94.25
faya,SA,1604799146,58,14.0,14.0,18.39,0.32,0,42.45
zhangye,CN,1604799146,38,8.72,8.72,38.93,0.62,0,100.45
noumea,NC,1604799135,51,28.0,28.0,-22.28,5.7,40,166.46
klaksvik,FO,1604799147,86,5.0,5.0,62.23,0.5,74,-6.59
makaha,US,1604799147,65,28.96,30.0,21.47,6.2,40,-158.22
tura,IN,1604799147,77,21.27,21.27,25.52,1.15,0,90.22
ngawi,ID,1604799147,63,29.82,29.82,-7.4,1.75,9,111.45
varhaug,NO,1604799148,99,5.74,6.11,58.61,1.44,98,5.65
pacific grove,US,1604799114,78,11.83,12.22,36.62,2.68,23,-121.92
atikokan,CA,1604799148,93,12.13,12.13,48.76,3.02,100,-91.62
hofn,IS,1604799148,86,7.14,7.14,64.25,7.03,100,-15.21
thompson,CA,1604798981,85,-9.0,-9.0,55.74,3.1,90,-97.86
marsh harbour,BS,1604799149,77,26.2,26.2,26.54,13.33,100,-77.06
dudinka,RU,1604798864,85,-7.0,-7.0,69.41,10.0,75,86.18
mehamn,NO,1604799149,75,3.66,3.66,71.04,13.6,91,27.85
buraydah,SA,1604799149,88,19.0,19.0,26.33,4.1,40,43.98
muhos,FI,1604799149,64,3.06,4.0,64.81,6.7,0,25.99
kavaratti,IN,1604799150,72,28.34,28.34,10.57,2.94,1,72.64
lucapa,AO,1604799150,99,18.09,18.09,-8.42,0.78,100,20.74
edson,CA,1604799060,78,-8.0,-8.0,53.58,4.1,90,-116.44
cururupu,BR,1604799150,87,25.54,25.54,-1.83,2.02,16,-44.87
abbeville,FR,1604799018,87,9.7,11.0,50.1,3.1,0,1.83
chuy,UY,1604799151,94,15.1,15.1,-33.7,2.53,0,-53.46
cidreira,BR,1604799151,84,19.9,19.9,-30.18,7.08,27,-50.21
akdepe,TM,1604799151,87,9.0,9.0,42.06,3.1,90,59.38
nongstoin,IN,1604799151,53,17.03,17.03,25.52,1.61,0,91.27
vostok,RU,1604799151,93,-1.82,-1.82,46.49,1.14,94,135.88
kasongo-lunda,CD,1604799152,93,21.54,21.54,-6.47,0.24,100,16.82
uhlove,UA,1604799152,76,9.76,9.76,44.82,1.93,0,33.6
laguna,US,1604799087,41,14.04,15.0,38.42,2.1,1,-121.42
dongsheng,CN,1604799152,62,3.44,3.44,39.82,4.09,0,109.98
narsaq,GL,1604799152,74,-2.0,-2.0,60.92,2.1,100,-46.05
weligama,LK,1604799153,83,26.46,26.46,5.97,1.52,24,80.42
chara,RU,1604799153,80,-18.05,-18.05,56.91,0.76,42,118.26
reconquista,AR,1604799153,69,20.61,20.61,-29.15,3.69,0,-59.65
zemst,BE,1604799153,93,8.31,11.67,50.98,2.75,0,4.46
tank,PK,1604799122,30,16.02,16.02,32.22,0.45,0,70.38
lively,CA,1604799055,87,10.0,10.0,46.43,4.6,75,-81.15
belmonte,BR,1604799154,88,25.0,25.0,-15.86,3.6,75,-38.88
kahului,US,1604799154,52,27.19,32.0,20.89,8.2,40,-156.47
antofagasta,CL,1604798763,77,16.0,16.0,-23.65,3.1,90,-70.4
aykhal,RU,1604799154,84,-17.0,-17.0,66.0,2.0,0,111.5
abu zabad,SD,1604799155,28,21.1,21.1,12.35,4.56,72,29.25
kichmengskiy gorodok,RU,1604799155,83,6.59,6.59,59.98,6.55,100,45.79
nova olimpia,BR,1604799156,54,27.39,27.39,-14.8,2.08,100,-57.29
seoul,KR,1604798861,29,10.7,11.0,37.57,2.1,1,126.98
gwembe,ZM,1604799156,27,23.49,23.49,-16.5,1.6,0,27.61
san cristobal,VE,1604799156,92,19.55,19.55,7.77,0.45,91,-72.22
ixtapa,MX,1604799156,69,28.0,28.0,20.7,3.1,40,-105.2
bumba,CD,1604799157,92,21.75,21.75,2.18,0.15,79,22.47
bakchar,RU,1604799157,82,2.36,2.36,57.02,4.9,100,82.07
mangai,CD,1604799157,99,19.88,19.88,-4.05,0.74,100,19.53
dalby,AU,1604799157,41,23.89,23.89,-27.18,1.79,35,151.27
xai-xai,MZ,1604799157,45,26.64,26.64,-25.05,3.1,0,33.64
lorengau,PG,1604799157,61,29.47,29.47,-2.02,2.9,100,147.27
talara,PE,1604799158,85,18.03,18.03,-4.58,6.98,55,-81.27
tari,NG,1604799158,21,22.79,22.79,12.41,3.54,2,4.49
buala,SB,1604799158,72,29.37,29.37,-8.14,2.75,80,159.59
onalaska,US,1604799158,52,17.42,18.0,43.88,5.1,1,-91.24
beringen,BE,1604799159,93,6.13,8.0,51.05,1.0,96,5.22
tautira,PF,1604799159,66,28.94,29.0,-17.73,4.6,75,-149.15
novo oriente,BR,1604799159,43,27.44,27.44,-5.53,2.83,0,-40.77
eagle pass,US,1604799159,64,22.84,24.0,28.71,2.6,5,-100.5
bull savanna,JM,1604799160,89,24.67,24.67,17.89,5.23,100,-77.59
ilulissat,GL,1604799160,47,-9.0,-9.0,69.22,0.5,6,-51.1
leningradskiy,RU,1604799160,95,-7.56,-7.56,69.38,3.88,100,178.42
springbok,ZA,1604799160,100,7.45,7.45,-29.66,0.94,34,17.89
ipora,BR,1604799161,64,23.91,23.91,-16.44,1.62,100,-51.12
abancay,PE,1604799161,67,14.55,14.55,-13.63,1.66,43,-72.88
santa isabel,BR,1604799161,87,16.65,17.0,-23.32,1.5,0,-46.22
poronaysk,RU,1604799161,85,0.6,0.6,49.22,5.85,100,143.12
mulege,MX,1604799161,59,23.28,23.28,26.88,1.78,0,-111.98
fort nelson,CA,1604799162,92,-13.0,-13.0,58.81,1.5,20,-122.7
geraldton,AU,1604799162,68,22.0,22.0,-28.77,4.6,90,114.6
port hueneme,US,1604799122,58,13.27,14.44,34.15,9.3,1,-119.2
tamworth,GB,1604799162,100,7.95,9.0,52.63,2.1,75,-1.7
colares,PT,1604799163,100,16.29,16.67,38.8,6.4,100,-9.45
jaunpur,IN,1604799163,87,15.0,15.0,25.73,1.0,0,82.68
thinadhoo,MV,1604799163,70,28.99,28.99,0.53,3.41,56,72.93
bethel,US,1604799012,87,12.77,15.56,41.37,1.8,1,-73.41
severodvinsk,RU,1604799164,86,3.0,3.0,64.56,8.0,75,39.83
tigre,AR,1604799164,68,20.35,21.0,-34.43,4.1,0,-58.58
gazli,UZ,1604799164,62,10.04,10.04,40.13,5.38,100,63.45
tukrah,LY,1604799165,75,18.62,18.62,32.53,10.09,29,20.58
mount gambier,AU,1604799067,52,18.0,18.0,-37.83,3.1,0,140.77
akalgarh,IN,1604799166,28,16.94,16.94,29.82,1.44,0,75.88
acapulco,MX,1604798955,78,28.0,28.0,16.86,3.1,20,-99.89
high rock,BS,1604799166,88,25.0,25.0,26.62,6.2,90,-78.28
tazmalt,DZ,1604799166,45,20.0,20.0,36.39,4.6,0,4.4
megion,RU,1604799167,98,0.0,0.0,61.03,4.0,90,76.11
lasa,IT,1604799167,47,4.26,5.56,46.62,1.5,5,10.7
loukhi,RU,1604799167,86,0.95,0.95,66.08,7.14,42,33.04
acari,PE,1604799167,58,18.19,18.19,-15.43,1.0,41,-74.62
aginskoye,RU,1604798998,88,-9.67,-9.67,51.1,3.45,29,114.53
arman,RU,1604799168,86,-11.16,-11.16,59.7,7.3,99,150.17
talnakh,RU,1604799168,85,-7.0,-7.0,69.49,10.0,75,88.4
sosua,DO,1604799168,88,26.0,26.0,19.77,4.66,75,-70.52
lamu,KE,1604799168,88,26.0,26.0,-2.27,3.32,40,40.9
nuevo ideal,MX,1604799169,39,14.52,14.52,24.89,3.01,0,-105.07
plymouth,US,1604799169,71,13.39,15.0,41.83,2.1,1,-70.83
hambantota,LK,1604799169,100,25.0,25.0,6.12,0.5,20,81.12
ust-ilimsk,RU,1604799169,94,0.91,0.91,58.0,3.31,100,102.66
lahaina,US,1604799035,52,27.2,32.0,20.88,8.2,40,-156.68
viedma,AR,1604799025,81,13.33,13.33,-40.81,1.79,100,-63.0
belaya gora,RU,1604799170,93,-18.73,-18.73,68.53,0.86,99,146.42
grand gaube,MU,1604799171,81,21.67,21.67,-20.01,2.24,32,57.66
hauterive,FR,1604799171,67,15.14,17.0,46.09,4.6,90,3.45
portobelo,PA,1604799171,99,22.7,26.11,9.55,3.13,11,-79.65
wonthaggi,AU,1604799171,53,19.76,21.11,-38.6,3.7,0,145.59
murdochville,CA,1604799171,69,1.0,1.0,48.96,4.6,21,-65.5
evanston,US,1604799033,59,17.13,18.89,42.04,3.6,20,-87.69
araouane,ML,1604799172,17,26.36,26.36,18.9,5.16,69,-3.53
xining,CN,1604799173,68,2.56,2.56,36.62,0.57,85,101.77
pokhara,NP,1604798954,57,15.01,15.01,28.23,1.67,0,83.98
porto recanati,IT,1604799173,100,8.83,9.44,43.44,1.5,0,13.66
nyborg,DK,1604799173,100,5.66,7.78,55.31,0.5,0,10.79
vaitape,PF,1604799173,74,26.84,26.84,-16.52,4.88,100,-151.75
alofi,NU,1604799174,65,28.0,28.0,-19.06,6.2,26,-169.92
iquitos,PE,1604799174,74,26.0,26.0,-3.75,3.1,90,-73.25
saveh,IR,1604799174,56,13.37,13.37,35.02,3.14,100,50.36
sao joao da barra,BR,1604799174,87,23.22,23.22,-21.64,2.99,100,-41.05
upata,VE,1604799175,87,27.22,27.22,8.01,0.89,100,-62.4
quatre cocos,MU,1604799175,94,21.83,22.0,-20.21,3.6,75,57.76
souillac,MU,1604799175,94,22.0,22.0,-20.52,3.6,75,57.52
gizo,SB,1604799175,69,29.33,29.33,-8.1,1.44,84,156.84
mokobeng,BW,1604799176,41,27.34,27.34,-23.0,2.66,0,27.67
tommot,RU,1604799176,90,-15.94,-15.94,58.96,3.9,100,126.29
galesong,ID,1604799176,53,30.81,30.81,-5.32,1.47,19,119.37
kalamata,GR,1604799176,62,13.0,13.0,37.04,2.1,0,22.11
jalu,LY,1604799176,85,15.6,15.6,29.03,4.41,0,21.55
churapcha,RU,1604799177,89,-22.1,-22.1,62.0,2.58,99,132.43
wawa,NG,1604799177,37,22.81,22.81,9.9,1.55,52,4.42
touros,BR,1604799177,78,27.0,27.0,-5.2,3.6,40,-35.46
panguna,PG,1604799178,81,26.2,26.2,-6.32,0.18,98,155.48
dubbo,AU,1604799178,49,20.0,20.0,-32.25,7.2,75,148.62
goundam,ML,1604799178,16,26.03,26.03,16.41,4.31,0,-3.67
marinha grande,PT,1604799178,87,16.07,16.11,39.75,5.1,20,-8.93
warrington,GB,1604799178,93,8.91,10.56,53.39,1.5,100,-2.58
dawlatabad,AF,1604799179,33,12.6,12.6,36.41,1.39,96,64.91
sibolga,ID,1604799179,67,29.26,29.26,1.74,0.73,50,98.78
west bay,KY,1604799179,82,26.67,26.67,19.37,2.68,100,-81.42
karratha,AU,1604799179,24,32.63,32.63,-20.74,4.1,0,116.85
ahipara,NZ,1604799179,71,17.66,17.66,-35.17,6.19,32,173.17
gurlan,UZ,1604799180,76,9.51,10.0,41.84,2.1,20,60.39
college,US,1604799180,85,-5.39,-4.44,64.86,1.5,90,-147.8
lebyazhye,RU,1604799180,96,3.56,3.56,55.27,3.52,100,66.49
meulaboh,ID,1604799180,73,27.78,27.78,4.14,1.14,69,96.13
jiaocheng,CN,1604799180,55,20.79,20.79,24.68,1.44,87,116.14
evensk,RU,1604799181,89,-10.47,-10.47,61.95,4.35,77,159.23
dingle,PH,1604799181,74,27.97,27.97,11.0,1.17,8,122.67
marzuq,YE,1604799181,61,16.39,16.39,14.4,1.34,2,46.47
mahibadhoo,MV,1604799181,74,28.51,28.51,3.78,4.48,98,72.97
constantine,DZ,1604799182,50,14.0,14.0,36.37,2.1,0,6.61
erzin,TR,1604799182,53,15.56,15.56,36.96,5.81,0,36.2
warri,NG,1604799182,94,24.34,24.34,5.52,1.35,94,5.75
zvishavane,ZW,1604799182,37,24.62,24.62,-20.33,1.36,0,30.07
henties bay,NA,1604799182,92,15.56,15.56,-22.12,0.89,72,14.28
vilani,LV,1604799182,90,8.93,8.93,56.55,5.44,100,26.92
maraa,BR,1604799183,96,22.98,22.98,-1.83,1.13,31,-65.37
genhe,CN,1604799183,87,-10.11,-10.11,50.78,1.52,0,121.52
tumen,CN,1604799183,64,2.9,2.9,42.97,10.2,0,129.84
xingtai,CN,1604799184,33,11.92,11.92,37.06,1.82,0,114.49
cascais,PT,1604799184,100,16.33,16.67,38.7,5.94,100,-9.42
borogontsy,RU,1604799184,88,-22.41,-22.41,62.67,2.18,96,131.17
safford,US,1604799005,56,18.54,20.0,32.83,5.7,90,-109.71
borba,BR,1604799184,77,26.44,26.44,-4.39,0.56,49,-59.59
pitea,SE,1604799168,69,2.0,2.0,65.32,2.1,39,21.48
poum,NC,1604799185,80,24.71,24.71,-20.23,9.8,6,164.02
pozo colorado,PY,1604799185,29,26.55,26.55,-23.49,2.97,3,-58.8
taoudenni,ML,1604799185,17,26.03,26.03,22.68,4.53,22,-3.98
tokur,RU,1604799185,89,-10.65,-10.65,53.13,1.57,80,132.9
newport,GB,1604799170,95,10.61,11.67,51.59,4.06,95,-3.0
santa vitoria do palmar,BR,1604798947,94,15.65,15.65,-33.52,2.86,0,-53.37
verkhoyansk,RU,1604799107,84,-31.09,-31.09,67.54,0.57,84,133.38
sampit,ID,1604799186,83,28.52,28.52,-2.53,1.21,100,112.95
kuusamo,FI,1604799186,89,0.0,0.0,65.97,7.7,0,29.18
prince rupert,CA,1604799057,64,4.22,6.0,54.32,3.1,1,-130.32
lata,PT,1604799187,89,15.57,16.11,40.16,1.34,86,-8.33
ahuimanu,US,1604799187,65,28.21,30.0,21.44,4.6,90,-157.84
yulara,AU,1604799187,9,30.0,30.0,-25.24,5.7,47,130.99
loandjili,CG,1604799187,94,26.0,26.0,-4.76,3.1,90,11.86
luganville,VU,1604799187,74,30.0,30.0,-15.53,6.2,75,167.17
piacabucu,BR,1604799188,84,24.92,24.92,-10.41,4.92,12,-36.43
monki,PL,1604799188,100,6.95,7.78,53.41,3.01,57,22.8
raton,US,1604798914,44,13.22,14.0,36.9,7.7,75,-104.44
moose factory,CA,1604799188,86,-1.0,-1.0,51.26,4.6,1,-80.61
knyaginino,RU,1604799188,85,3.62,3.62,55.82,7.43,80,45.03
kurumkan,RU,1604799189,83,-7.6,-7.6,54.3,0.34,88,110.3
yenagoa,NG,1604799189,94,24.16,24.16,4.92,1.8,91,6.26
rehoboth,NA,1604799189,34,14.73,14.73,-23.32,1.29,1,17.08
mae sot,TH,1604799189,88,25.0,25.0,16.72,2.16,20,98.57
sinazongwe,ZM,1604799190,41,27.99,27.99,-17.26,0.43,0,27.46
whitehorse,CA,1604799190,84,-15.0,-15.0,60.72,6.2,40,-135.05
cajati,BR,1604799190,93,16.61,16.61,-24.74,0.56,28,-48.12
gribanovskiy,RU,1604799190,94,2.22,2.22,51.46,4.33,0,41.98
homer,US,1604799190,100,3.8,5.56,59.64,4.37,90,-151.55
moreira sales,BR,1604799191,44,23.5,23.5,-24.06,2.12,0,-53.01
etchojoa,MX,1604799191,69,27.22,27.22,26.92,5.36,0,-109.63
chambersburg,US,1604799180,73,9.98,11.11,39.94,0.81,0,-77.66
anori,BR,1604799191,89,24.89,24.89,-3.77,0.22,99,-61.64
mackay,AU,1604799191,61,25.76,27.0,-21.15,9.8,26,149.2
taltal,CL,1604799192,78,14.31,14.31,-25.4,0.54,53,-70.48
coquimbo,CL,1604798975,93,13.0,13.0,-29.95,5.1,96,-71.34
presque isle,US,1604799192,61,7.69,8.0,46.68,3.6,90,-68.02
haines junction,CA,1604799192,76,-21.0,-21.0,60.75,0.25,100,-137.51
gao,ML,1604799192,19,23.39,23.39,16.64,5.65,0,1.64
wuan,CN,1604799193,36,18.87,18.87,31.68,3.51,0,112.0
opunake,NZ,1604799193,87,15.83,16.11,-39.46,0.89,11,173.86
saint-louis,SN,1604799193,43,31.0,31.0,16.33,1.0,0,-15.0
lyaskelya,RU,1604799193,76,3.47,3.47,61.77,4.11,99,31.02
darnah,LY,1604799193,76,19.39,19.39,32.77,6.13,59,22.64
rondonopolis,BR,1604799194,55,27.44,27.44,-16.47,1.61,99,-54.64
bacolod,PH,1604799194,72,27.74,27.74,10.67,0.57,29,122.95
tiarei,PF,1604799194,66,28.94,29.0,-17.53,4.6,75,-149.33
khlevnoye,RU,1604799194,93,3.64,4.0,52.2,3.0,0,39.09
kjopsvik,NO,1604799195,90,2.78,3.89,68.1,1.34,95,16.37
okhotsk,RU,1604799195,90,-10.52,-10.52,59.38,7.14,46,143.3
hervey bay,AU,1604799195,39,27.0,27.0,-25.3,7.7,40,152.85
biak,ID,1604799195,57,29.15,29.15,-0.91,3.39,100,122.88
laurel,US,1604799129,93,11.6,13.89,39.1,0.7,1,-76.85
tchibanga,GA,1604799195,99,21.98,21.98,-2.85,0.68,99,11.03
puerto escondido,MX,1604799196,69,28.0,28.0,15.85,1.59,40,-97.07
eustis,US,1604799196,78,23.74,24.0,28.85,4.1,1,-81.69
kirkconnel,GB,1604799196,81,6.2,7.0,55.39,2.6,20,-4.0
linfen,CN,1604799089,32,13.47,13.47,36.09,0.25,0,111.52
regina,CA,1604799005,80,0.0,0.0,50.45,4.6,90,-104.62
marawi,PH,1604799197,74,28.33,28.33,8.0,2.24,25,124.29
tres arroyos,AR,1604799197,94,11.13,11.13,-38.37,3.75,0,-60.28
alihe,CN,1604799197,78,-6.81,-6.81,50.57,4.41,51,123.72
gornopravdinsk,RU,1604799197,97,1.09,1.09,60.05,2.06,100,69.9
ystad,SE,1604799197,93,4.05,5.0,55.43,1.0,0,13.82
ballina,AU,1604799198,56,20.1,21.0,-28.87,7.2,90,153.57
chino valley,US,1604798913,48,6.96,8.33,34.76,6.7,40,-112.45
broome,US,1604799198,48,12.1,16.0,42.25,2.6,1,-75.83
sisimiut,GL,1604799198,84,-10.01,-10.01,66.94,4.64,56,-53.67
namatanai,PG,1604799198,65,30.04,30.04,-3.67,0.89,36,152.43
sarai,RU,1604799199,91,4.44,4.44,53.75,5.85,17,41.02
waingapu,ID,1604799199,45,31.92,31.92,-9.66,3.45,55,120.26
atambua,ID,1604799199,39,31.57,31.57,-9.11,1.17,11,124.89
naples,IT,1604799199,87,11.22,13.89,40.83,1.0,0,14.25
qasigiannguit,GL,1604799200,47,-9.0,-9.0,68.82,0.5,9,-51.19
hasilpur,PK,1604799200,29,17.61,17.61,29.71,2.03,0,72.56
porbandar,IN,1604799200,39,25.36,25.36,21.64,3.77,0,69.61
barcelona,ES,1604799168,100,14.3,15.56,41.39,3.1,0,2.16
nioro,GM,1604799201,49,26.17,26.17,13.35,3.01,0,-15.75
codrington,AU,1604799201,65,16.86,16.86,-38.27,4.31,0,141.97
ust-kut,RU,1604799201,96,-4.16,-4.16,56.79,2.03,100,105.77
cuamba,MZ,1604799201,56,23.02,23.02,-14.8,3.36,0,36.54
kiknur,RU,1604799201,89,2.99,2.99,57.3,7.03,100,47.2
